{
	"Bantayan": {
		"Bantayan": {
			"region": "Bantayan",
			"city": "Bantayan",
			"pier": "",
			"lat": "11.1651",
			"lon": "123.71484",
			"phoneNumber": "",
			"email": "",
			"code": "BAN.BAN"
		},
		"Santa Fe": {
			"region": "Bantayan",
			"city": "Santa Fe",
			"pier": "",
			"lat": "11.16569",
			"lon": "123.80834",
			"phoneNumber": "",
			"email": "",
			"code": "BAN.SAN"
		}
	},
	"Bohol": {
		"Tagbilaran": {
			"region": "Bohol",
			"city": "Tagbilaran",
			"pier": "",
			"lat": "9.64978",
			"lon": "123.84672",
			"phoneNumber": "",
			"email": "",
			"code": "BOH.TAG"
		}
	},
	"Cebu": {
		"Bato": {
			"region": "Cebu",
			"city": "Bato",
			"pier": "",
			"lat": "9.45919",
			"lon": "123.30099",
			"phoneNumber": "",
			"email": "",
			"code": "CEB.BAT"
		},
		"Cebu": {
			"region": "Cebu",
			"city": "Cebu",
			"pier": "3",
			"lat": "",
			"lon": "",
			"phoneNumber": "",
			"email": "",
			"code": "CEB.CEB.3"
		},
		"Daanbantayan": {
			"region": "Cebu",
			"city": "Daanbantayan",
			"pier": "",
			"lat": "11.27953",
			"lon": "124.03057",
			"phoneNumber": "",
			"email": "",
			"code": "CEB.DAN"
		},
		"Hagnaya": {
			"region": "Cebu",
			"city": "Hagnaya",
			"pier": "",
			"lat": "11.09322",
			"lon": "123.94571",
			"phoneNumber": "",
			"email": "",
			"code": "CEB.HAG"
		},
		"Tabuelan": {
			"region": "Cebu",
			"city": "Tabuelan",
			"pier": "",
			"lat": "10.832046",
			"lon": "123.870298",
			"phoneNumber": "",
			"email": "",
			"code": "CEB.TAB"
		},
		"Toledo": {
			"region": "Cebu",
			"city": "Toledo",
			"pier": "",
			"lat": "10.389309",
			"lon": "123.636843",
			"phoneNumber": "",
			"email": "",
			"code": "CEB.TOL"
		}
	},
	"Negros": {
		"Cadiz": {
			"region": "Negros",
			"city": "Cadiz",
			"pier": "",
			"lat": "10.96139",
			"lon": "123.31243",
			"phoneNumber": "",
			"email": "",
			"code": "NEG.CAD"
		},
		"Tampi": {
			"region": "Negros",
			"city": "Tampi",
			"pier": "",
			"lat": "9.44134",
			"lon": "123.2364",
			"phoneNumber": "",
			"email": "",
			"code": "NEG.TAM"
		}
	},
	"Panay": {
		"Estancia": {
			"region": "Panay",
			"city": "Estancia",
			"pier": "",
			"lat": "11.45143",
			"lon": "123.15467",
			"phoneNumber": "",
			"email": "",
			"code": "PAN.EST"
		}
	},
	"Siquijor": {
		"Siquijor": {
			"region": "Siquijor",
			"city": "Siquijor",
			"pier": "",
			"lat": "9.218006",
			"lon": "123.512395",
			"phoneNumber": "",
			"email": "",
			"code": "SIQ.SIQ"
		},
		"Larena": {
			"region": "Siquijor",
			"city": "Larena",
			"pier": "",
			"lat": "9.251103",
			"lon": "123.591476",
			"phoneNumber": "",
			"email": "",
			"code": "SIQ.LAR"
		}
	}
}